City,Temp,Latitude,Longitude,Humidity,Cloudiness,Wind Speed
weyburn,65.82,49.67,-103.85,83.0,100.0,6.64
albany,60.44,42.6,-73.97,58.0,75.0,6.08
port hardy,59.0,50.7,-127.42,62.0,75.0,6.93
inderborskiy,59.04,-33.02,27.91,36.0,0.0,9.6
east london,39.85,69.7,170.31,84.0,18.0,6.31
pevek,62.22,39.05,-27.98,76.0,2.0,13.15
lagoa,51.8,-33.87,121.9,81.0,41.0,12.75
esperance,88.97,18.69,12.92,12.0,0.0,5.5
bilma,55.4,57.79,-152.41,71.0,75.0,10.29
kodiak,83.37,32.86,-90.41,65.0,1.0,5.3
yazoo city,64.63,63.92,127.47,58.0,5.0,1.92
sangar,50.0,42.03,-8.16,92.0,82.0,1.01
vila,46.4,60.82,-115.8,87.0,75.0,10.29
hay river,33.8,-54.8,-68.3,86.0,75.0,6.87
ushuaia,46.94,60.06,71.48,65.0,77.0,6.69
salym,60.01,51.02,45.7,41.0,13.0,7.0
krasnoarmeysk,52.5,-46.6,168.33,69.0,100.0,17.9
bluff,57.2,-25.24,130.99,47.0,13.0,10.29
nizhneyansk,75.2,-7.47,-34.81,94.0,40.0,10.29
yulara,81.05,65.75,150.85,26.0,100.0,11.48
pitimbu,82.4,-8.19,114.97,100.0,75.0,14.99
zyryanka,71.01,-0.74,-90.35,90.0,11.0,4.0
banjar,33.39,64.18,-51.72,86.0,13.0,14.99
puerto ayora,57.87,-33.65,115.33,70.0,100.0,8.88
nuuk,73.4,-21.21,-159.78,64.0,75.0,6.93
busselton,73.83,36.47,52.35,48.0,0.0,3.06
avarua,78.8,-16.92,145.77,78.0,90.0,11.41
amol,84.2,55.74,-97.86,37.0,40.0,6.93
cairns,31.82,72.79,-56.15,96.0,55.0,12.46
thompson,54.54,-42.78,147.06,79.0,100.0,1.01
upernavik,43.07,47.67,-52.73,93.0,90.0,11.41
new norfolk,57.2,-37.83,140.77,93.0,75.0,10.29
torbay,80.6,-19.55,169.27,65.0,75.0,9.17
mount gambier,70.39,28.68,-17.76,88.0,99.0,6.93
isangel,57.97,-18.6,-43.38,89.0,0.0,3.0
santa cruz de la palma,92.55,36.04,-114.98,7.0,1.0,11.83
serro,37.2,-53.15,-70.92,93.0,100.0,12.75
henderson,54.0,54.63,-8.45,95.0,0.0,6.15
punta arenas,71.22,-22.97,-42.03,82.0,75.0,17.11
killybegs,50.92,48.94,-68.65,71.0,1.0,4.7
arraial do cabo,62.24,42.33,142.37,83.0,97.0,10.69
betsiamites,76.08,-23.12,-134.97,86.0,97.0,11.54
shizunai,71.01,20.26,100.4,99.0,100.0,0.65
rikitea,62.6,49.78,-74.85,29.0,1.0,3.36
chiang khong,50.0,64.38,-173.3,66.0,97.0,13.42
bargal,65.17,46.39,41.87,84.0,100.0,3.4
chapais,80.01,22.08,-159.32,69.0,40.0,16.11
provideniya,60.49,71.97,102.5,33.0,46.0,12.57
novyy yegorlyk,47.86,-37.62,-73.65,73.0,100.0,5.46
kapaa,75.7,50.63,-96.99,30.0,100.0,8.99
khatanga,76.24,-8.9,-35.15,87.0,27.0,10.27
lebu,66.11,44.76,39.87,93.0,7.0,2.24
gimli,52.14,-45.42,167.72,83.0,100.0,8.05
sao jose da coroa grande,53.13,-33.93,18.42,93.0,75.0,1.12
belorechensk,63.23,42.1,-79.24,39.0,1.0,8.05
te anau,66.2,39.89,4.27,77.0,0.0,4.7
cape town,76.59,14.9,-24.5,79.0,0.0,6.51
jamestown,52.32,-30.18,-50.21,72.0,0.0,4.76
mahon,58.35,-43.53,172.63,62.0,95.0,8.05
sao filipe,69.01,-20.52,57.52,77.0,0.0,7.0
cidreira,66.11,50.05,-110.67,28.0,75.0,20.8
christchurch,80.11,5.41,100.34,94.0,20.0,5.06
souillac,71.6,18.39,42.45,30.0,48.0,3.2
medicine hat,51.01,-34.42,19.23,96.0,59.0,4.21
cagayan de tawi-tawi,62.82,47.81,-122.38,55.0,90.0,3.58
georgetown,49.21,55.95,67.67,71.0,0.0,9.82
taolanaro,56.05,-15.25,23.13,70.0,0.0,8.41
barentsburg,81.5,-8.84,121.66,70.0,40.0,5.26
faya,57.99,-33.59,26.89,86.0,21.0,3.0
attawapiskat,76.17,19.73,-155.09,69.0,75.0,4.7
hermanus,47.39,-46.19,168.86,69.0,100.0,4.52
edmonds,59.52,41.37,-73.41,67.0,1.0,4.7
armizonskoye,46.4,71.29,-156.79,70.0,1.0,10.29
mongu,61.52,-21.36,55.77,77.0,34.0,12.75
ende,40.8,77.48,-69.36,68.0,0.0,3.06
port alfred,83.75,35.73,140.83,69.0,75.0,6.93
hilo,80.46,-9.8,-139.03,73.0,5.0,13.44
mataura,37.4,65.61,-37.64,86.0,100.0,31.09
bethel,47.01,69.38,178.42,73.0,40.0,6.62
barrow,51.01,61.73,17.1,81.0,0.0,4.41
saint-philippe,77.0,-21.2,-175.2,69.0,20.0,13.87
solsvik,54.18,-24.79,-50.01,91.0,83.0,8.97
qaanaaq,62.29,-19.84,34.84,100.0,29.0,3.36
hasaki,41.52,50.68,156.12,91.0,100.0,14.23
atuona,63.28,34.64,-120.46,72.0,0.0,18.34
tasiilaq,69.04,-8.93,125.41,76.0,27.0,5.26
leningradskiy,68.0,62.46,-114.35,40.0,75.0,19.46
hudiksvall,47.53,66.32,-179.17,69.0,48.0,5.53
vaini,53.83,-34.0,24.73,90.0,100.0,8.12
castro,48.72,-26.96,-52.53,96.0,0.0,3.18
belushya guba,71.6,41.32,61.07,49.0,0.0,4.7
beira,77.05,-11.38,43.28,71.0,0.0,13.71
severo-kurilsk,83.53,11.14,123.72,72.0,100.0,6.31
lompoc,55.4,-34.53,20.04,87.0,100.0,1.95
airai,61.27,35.6,103.21,73.0,100.0,2.8
yellowknife,61.27,64.86,-147.8,77.0,75.0,4.18
egvekinot,54.82,42.25,-75.83,50.0,1.0,5.82
kruisfontein,75.36,14.2,24.67,42.0,97.0,22.17
xaxim,82.38,25.26,63.47,88.0,87.0,4.94
hazorasp,44.73,71.04,27.85,77.0,94.0,30.0
mitsamiouli,82.4,13.22,-59.52,74.0,40.0,19.46
sulangan,89.55,27.67,-105.17,12.0,0.0,15.97
bredasdorp,87.93,31.56,48.18,13.0,0.0,11.5
linxia,62.01,37.32,-8.8,81.0,0.0,5.14
college,81.82,35.13,140.3,78.0,75.0,9.17
broome,51.93,59.7,30.79,81.0,8.0,6.71
kutum,76.24,-2.5,-66.27,92.0,100.0,2.19
grand river south east,79.27,4.14,96.13,86.0,71.0,4.97
pasni,80.49,-10.62,150.67,85.0,15.0,15.48
mehamn,85.08,10.57,72.64,77.0,100.0,22.46
bathsheba,50.61,-35.33,-72.42,66.0,0.0,5.77
camargo,69.01,-20.01,57.66,77.0,0.0,8.99
susangerd,35.6,70.47,-68.59,90.0,1.0,28.86
aljezur,62.6,-26.65,15.16,29.0,0.0,13.87
katsuura,85.77,-2.02,147.27,71.0,98.0,10.11
saleaula,65.21,43.42,-116.13,34.0,75.0,4.7
skagastrond,80.6,6.5,2.6,88.0,40.0,12.75
nikolskoye,62.51,37.67,21.62,93.0,0.0,1.12
fonte boa,45.0,-46.28,169.85,69.0,100.0,3.0
samusu,47.34,34.17,77.58,49.0,2.0,3.89
meulaboh,72.0,14.98,-89.13,84.0,35.0,2.24
samarai,45.57,-38.0,-57.56,55.0,0.0,4.7
kavaratti,73.4,-23.85,151.25,69.0,40.0,8.05
constitucion,82.62,3.07,172.79,71.0,27.0,5.03
grand gaube,61.93,36.62,-121.92,72.0,40.0,9.17
clyde river,56.05,-36.77,144.28,73.0,53.0,1.99
luderitz,74.59,-0.13,-67.09,97.0,48.0,1.79
lorengau,75.34,34.38,-86.33,53.0,1.0,4.7
ada,77.0,6.12,81.12,100.0,20.0,4.7
porto novo,84.56,-2.57,150.8,73.0,100.0,9.95
platanos,42.8,60.92,-46.05,78.0,0.0,20.8
abu jubayhah,65.16,43.97,7.78,93.0,20.0,5.82
kaitangata,64.4,40.78,72.34,48.0,100.0,4.47
leh,82.26,30.37,-89.09,65.0,40.0,3.36
rio amarillo,48.61,64.89,-23.71,95.0,100.0,20.2
mar del plata,70.52,4.12,43.89,74.0,5.0,16.17
gladstone,65.41,-10.86,-40.13,92.0,2.0,7.27
butaritari,60.31,36.62,101.77,64.0,100.0,2.24
pacific grove,78.13,-3.28,-39.27,82.0,0.0,7.16
bendigo,75.6,-10.41,-36.43,84.0,27.0,8.66
sao gabriel da cachoeira,43.83,53.14,140.73,85.0,100.0,3.58
marshall,46.94,70.37,31.11,88.0,100.0,9.04
hambantota,58.46,-25.17,45.05,95.0,0.0,6.58
kavieng,68.0,69.45,-133.04,42.0,20.0,12.75
narsaq,75.81,0.6,-80.03,88.0,99.0,9.82
imperia,44.13,-33.7,-53.46,68.0,0.0,3.09
andijon,57.34,64.0,44.45,72.0,0.0,8.08
gulfport,77.74,70.63,147.92,31.0,100.0,14.14
olafsvik,75.96,-1.83,-44.87,92.0,15.0,2.98
xuddur,58.6,-38.27,141.97,80.0,41.0,17.76
ponto novo,64.92,-7.4,-79.57,81.0,57.0,10.54
xining,74.16,4.25,-54.38,95.0,100.0,1.92
trairi,78.8,41.29,123.77,44.0,0.0,6.71
piacabucu,65.52,32.67,-17.1,77.0,20.0,2.24
nikolayevsk-na-amure,63.0,-32.55,115.7,73.0,100.0,11.05
vardo,50.5,-43.3,-65.1,49.0,100.0,6.15
beloha,61.25,64.84,-147.72,82.0,90.0,4.7
tuktoyaktuk,44.6,69.49,88.4,75.0,100.0,24.61
muisne,50.61,51.07,-1.8,93.0,33.0,4.7
chuy,63.0,46.43,26.4,95.0,92.0,3.36
karpogory,77.14,-2.92,-39.92,84.0,2.0,9.31
magetan,40.64,63.05,179.32,89.0,96.0,11.16
chokurdakh,79.52,-16.48,-151.75,79.0,99.0,8.52
cururupu,81.16,-16.7,-151.02,78.0,25.0,12.06
codrington,38.16,60.14,-45.24,85.0,99.0,17.36
pacasmayo,74.26,-5.18,-68.9,91.0,100.0,2.17
grand-santi,51.85,65.58,-171.0,61.0,58.0,5.41
benxi,42.66,-26.5,17.16,49.0,13.0,1.77
ponta do sol,67.6,48.01,91.64,28.0,99.0,6.6
mandurah,72.28,13.23,-85.38,94.0,100.0,2.51
rawson,48.94,63.44,-20.27,94.0,100.0,26.11
fairbanks,51.33,60.25,24.07,83.0,0.0,4.9
talnakh,57.2,53.03,-9.07,87.0,40.0,3.36
salisbury,56.16,58.3,-134.42,82.0,90.0,6.93
asau,48.2,62.23,-6.59,93.0,7.0,1.12
itarema,79.77,12.34,-83.67,83.0,99.0,8.61
beringovskiy,81.5,24.09,32.91,20.0,0.0,14.99
faanui,71.44,57.8,158.67,29.0,35.0,2.06
fare,48.2,70.05,24.97,81.0,92.0,20.8
nanortalik,83.89,35.26,139.16,70.0,100.0,3.0
illoqqortoormiut,74.35,7.62,-11.83,97.0,95.0,1.77
jutai,71.6,37.38,55.49,68.0,0.0,1.48
lavrentiya,75.11,3.38,-59.8,89.0,96.0,3.87
bethanien,44.15,-21.53,21.93,51.0,0.0,4.97
hovd,83.5,24.14,67.45,86.0,69.0,13.4
waslala,77.77,40.13,124.39,45.0,0.0,4.43
vestmannaeyjar,33.8,69.22,-51.1,74.0,100.0,9.17
lohja,86.58,21.78,87.75,75.0,100.0,7.29
castletown,78.66,4.75,-55.17,81.0,88.0,5.39
juneau,80.76,9.49,50.81,65.0,98.0,25.95
klaksvik,82.98,22.29,114.16,79.0,2.0,11.99
laguna de perlas,59.43,44.08,-80.2,45.0,1.0,11.41
aswan,62.69,-34.73,135.87,75.0,7.0,17.25
tigil,51.01,-36.03,146.38,95.0,95.0,3.0
cockburn harbour,71.58,70.02,135.6,39.0,45.0,7.63
lakselv,67.37,30.48,-115.95,70.0,0.0,15.5
odawara,38.61,-29.66,22.75,58.0,0.0,2.59
mattru,81.41,14.08,98.2,80.0,100.0,3.87
kalaleh,49.6,64.25,-15.21,84.0,0.0,13.67
lethem,68.04,39.18,-84.53,55.0,89.0,8.95
dekar,57.04,-42.88,147.33,62.0,75.0,13.87
keti bandar,48.83,-17.93,19.77,50.0,0.0,5.21
dandong,41.18,-34.67,-54.92,93.0,0.0,3.36
ilulissat,84.2,19.22,-104.7,79.0,20.0,11.41
contai,71.19,68.75,161.3,35.0,15.0,2.68
brokopondo,54.95,66.77,123.37,63.0,0.0,2.39
bandarbeyla,73.27,56.17,107.45,50.0,0.0,5.64
victoria,83.23,13.78,124.39,77.0,100.0,5.57
shelburne,58.37,64.57,30.58,68.0,100.0,9.73
port lincoln,73.2,49.82,-94.43,27.0,75.0,18.34
corowa,79.27,-3.8,102.27,70.0,43.0,3.91
ust-kuyga,78.55,5.38,-52.95,83.0,100.0,3.42
khonuu,42.49,66.83,70.83,61.0,13.0,17.81
san quintin,59.0,-33.92,25.57,77.0,40.0,12.75
prieska,56.5,58.6,125.39,71.0,27.0,10.47
dawei,86.68,-2.67,141.3,64.0,73.0,5.95
hofn,73.4,32.69,128.84,94.0,75.0,6.93
hamilton,79.2,20.89,-156.47,51.0,40.0,24.16
hobart,48.2,63.84,-22.43,100.0,90.0,24.16
rundu,75.2,9.71,1.67,88.0,100.0,2.24
maldonado,71.17,-6.13,12.37,92.0,6.0,4.68
san patricio,63.91,40.6,-124.16,68.0,40.0,14.99
cherskiy,57.2,-33.18,138.02,62.0,6.0,12.75
warqla,81.36,11.28,-15.83,81.0,100.0,10.38
zhigansk,72.05,39.74,98.52,29.0,100.0,3.96
magistralnyy,77.56,4.95,-6.08,89.0,100.0,4.5
gigmoto,83.52,27.73,111.99,80.0,43.0,6.98
kostomuksha,83.84,-0.6,73.08,74.0,100.0,13.62
kenora,46.4,-24.79,-65.41,70.0,51.0,6.93
bengkulu,52.81,71.69,128.87,64.0,46.0,13.49
sinnamary,80.22,-16.78,-151.5,78.0,100.0,10.71
yar-sale,68.0,-22.85,-43.78,94.0,90.0,3.36
port elizabeth,62.4,39.41,-74.36,63.0,1.0,8.05
aldan,64.78,-13.7,-76.22,77.0,90.0,5.82
vanimo,80.87,1.74,98.78,76.0,99.0,2.1
ngukurr,58.62,51.38,1.39,73.0,78.0,1.99
fukue,70.16,33.74,-118.39,81.0,0.0,9.91
kahului,71.64,-0.19,-74.78,98.0,100.0,2.26
grindavik,89.4,22.89,-109.91,28.0,5.0,17.22
djougou,54.95,15.13,-91.62,100.0,100.0,2.19
soyo,60.01,42.78,-9.06,87.0,73.0,3.0
fortuna,64.99,51.71,105.86,53.0,33.0,2.77
port pirie,78.8,36.54,61.16,24.0,0.0,2.24
bubaque,31.75,73.51,80.55,96.0,0.0,11.32
jiuquan,50.0,46.62,10.7,87.0,90.0,4.7
sassandra,75.97,-0.16,-50.39,92.0,52.0,3.71
loudi,56.7,46.49,135.88,94.0,46.0,3.04
hithadhoo,61.74,38.52,-28.7,79.0,82.0,12.68
salta,49.06,50.2,-66.38,57.0,5.0,3.36
tiksi,37.2,63.75,-68.51,74.0,75.0,18.34
tevaitoa,70.14,-16.35,-53.76,55.0,0.0,4.52
itaguai,64.2,43.06,44.74,82.0,82.0,8.95
brigantine,47.32,65.7,82.47,71.0,89.0,25.84
pisco,85.12,26.18,127.76,79.0,40.0,11.41
sibolga,89.73,11.28,49.18,49.0,100.0,6.78
margate,52.97,-16.77,31.58,89.0,34.0,2.71
rancho palos verdes,77.99,9.75,-63.18,81.0,3.0,6.58
puerto leguizamo,47.95,58.15,41.59,84.0,0.0,2.71
cabo san lucas,53.6,-32.25,148.62,76.0,0.0,1.12
cabrican,78.42,-7.02,-45.48,65.0,21.0,6.33
muros,88.84,-4.24,142.84,64.0,100.0,1.39
babushkin,78.4,1.24,111.46,94.0,75.0,1.12
sarakhs,86.7,14.4,33.52,46.0,98.0,16.04
dikson,56.41,-46.13,167.68,71.0,100.0,7.96
alotau,54.59,71.92,114.08,41.0,0.0,8.99
lasa,53.01,47.39,13.69,99.0,100.0,5.53
afua,78.35,25.52,90.22,90.0,14.0,5.26
vostok,82.4,10.15,-85.45,78.0,75.0,9.17
ribeira grande,82.0,-3.7,128.18,79.0,2.0,8.72
sept-iles,63.09,49.76,129.52,80.0,100.0,4.92
iqaluit,81.9,33.21,-87.57,48.0,1.0,3.36
guiratinga,50.0,57.05,-135.33,87.0,90.0,1.21
oktyabrskoye,52.07,60.75,-137.51,79.0,100.0,7.92
krasnoselkup,77.76,41.76,86.15,20.0,0.0,13.4
nishihara,84.78,-12.07,134.27,56.0,0.0,14.56
bosaso,60.49,44.06,-121.32,34.0,100.0,1.99
mount darwin,83.48,23.8,83.7,69.0,60.0,0.83
maturin,53.58,63.32,30.02,71.0,68.0,7.14
susanino,82.83,29.03,21.55,20.0,0.0,11.83
dubbo,67.17,37.46,-122.43,93.0,90.0,12.75
sao raimundo das mangabeiras,72.03,-22.67,167.48,76.0,33.0,21.52
ambunti,75.09,33.36,129.55,83.0,75.0,2.24
sri aman,72.07,-22.43,-151.33,59.0,100.0,14.9
wad madani,67.62,54.43,119.93,51.0,72.0,2.33
tuatapere,82.06,29.7,-91.21,74.0,1.0,3.85
saskylakh,75.06,-20.74,116.85,32.0,0.0,21.0
schladming,82.4,8.88,76.6,78.0,75.0,2.24
tura,65.25,45.93,12.87,91.0,100.0,1.9
nicoya,75.2,12.56,-12.17,94.0,2.0,6.93
lolua,60.55,41.72,-81.25,48.0,1.0,10.29
ambon,58.62,-9.54,16.34,53.0,0.0,4.81
shirokiy,67.08,-23.78,-45.36,84.0,100.0,6.8
tuscaloosa,39.2,-45.58,-72.07,93.0,40.0,5.82
sitka,66.06,51.12,133.02,40.0,100.0,3.85
louisbourg,68.0,65.28,-126.83,49.0,75.0,14.99
haines junction,34.14,65.42,-52.9,88.0,100.0,7.34
korla,47.62,52.52,52.76,87.0,0.0,5.82
maningrida,82.4,18.43,-68.97,74.0,40.0,6.93
bend,55.4,-28.77,114.6,87.0,0.0,8.05
ramanuj ganj,63.9,-9.2,25.85,54.0,0.0,1.72
lieksa,57.2,38.2,44.77,54.0,0.0,4.7
jalu,88.54,16.64,1.64,40.0,0.0,25.64
half moon bay,84.16,11.03,20.28,52.0,100.0,11.79
babanusah,70.02,28.66,-17.92,88.0,93.0,6.93
vao,44.01,-32.17,-64.11,47.0,51.0,1.99
hirado,65.19,-24.87,113.63,33.0,0.0,18.12
moerai,62.82,-11.1,-77.61,83.0,15.0,6.26
vaitupu,74.59,54.77,-101.86,54.0,100.0,19.17
tupik,82.2,5.35,115.75,88.0,75.0,8.05
morgan city,58.32,39.36,-9.38,88.0,0.0,2.73
karratha,78.96,5.35,48.53,70.0,50.0,19.93
one hundred mile house,83.01,5.56,95.32,73.0,100.0,7.56
kollam,66.2,36.86,34.65,93.0,20.0,3.36
rosa,85.32,12.45,125.29,71.0,100.0,5.19
kedougou,87.71,22.57,59.53,51.0,0.0,4.99
painesville,67.6,62.72,147.95,39.0,76.0,7.81
malanje,70.77,9.41,45.06,67.0,14.0,15.46
ilhabela,78.8,10.0,118.79,88.0,90.0,4.7
coihaique,96.39,20.5,-10.07,16.0,0.0,12.39
aporawan,73.4,-23.13,150.73,69.0,40.0,8.05
chegdomyn,59.9,-23.32,-46.22,93.0,90.0,6.93
norman wells,47.19,60.05,69.9,64.0,50.0,6.64
maniitsoq,80.6,6.77,79.88,88.0,40.0,2.24
totskoye,86.0,-17.73,-149.15,70.0,75.0,8.05
la romana,69.91,-4.05,19.53,72.0,58.0,0.96
geraldton,96.31,27.85,67.91,19.0,0.0,8.01
bukama,84.2,-13.88,167.55,74.0,75.0,21.92
salmas,90.9,38.32,116.87,15.0,100.0,6.08
gao,64.83,56.91,118.26,48.0,70.0,4.18
am timan,49.64,63.19,64.42,63.0,44.0,6.82
los llanos de aridane,76.03,-1.2,-46.02,93.0,96.0,5.61
rio tercero,69.22,4.95,23.92,99.0,100.0,1.14
carnarvon,63.48,-10.07,-78.15,81.0,3.0,6.55
hualmay,69.01,-20.41,57.7,77.0,0.0,7.0
flin flon,56.21,46.09,3.45,93.0,90.0,2.93
beaufort,56.64,46.84,-1.87,100.0,75.0,4.7
peniche,66.2,30.28,57.08,19.0,0.0,4.68
zyryanovskiy,77.0,5.21,-4.41,100.0,40.0,3.36
hobyo,53.8,-13.16,-74.22,64.0,8.0,3.65
tsihombe,79.38,39.24,55.52,35.0,0.0,5.14
banda aceh,80.42,14.4,46.47,28.0,100.0,2.08
mersin,82.4,12.48,-16.55,83.0,89.0,6.93
anito,76.35,-8.38,-74.55,82.0,81.0,1.79
sur,67.37,7.77,-72.22,87.0,99.0,3.11
kholodnyy,50.65,51.87,50.37,79.0,0.0,11.32
odweyne,59.86,48.68,24.41,96.0,99.0,2.64
bahile,80.94,30.18,78.12,61.0,0.0,4.83
adrar,85.66,22.34,90.74,78.0,100.0,17.18
yeppoon,75.94,33.19,-82.53,53.0,40.0,4.7
santa isabel,48.94,66.87,13.71,100.0,75.0,5.82
gornopravdinsk,84.0,8.0,124.29,81.0,61.0,5.01
moratuwa,77.0,22.8,-81.54,94.0,40.0,3.36
tautira,72.48,1.65,14.58,91.0,62.0,2.01
mangai,67.87,32.62,14.0,86.0,0.0,19.64
shahdadkot,60.48,-35.1,173.78,3.0,100.0,7.58
sola,51.8,58.81,-122.7,93.0,90.0,12.75
cangzhou,84.2,44.37,-100.35,51.0,1.0,16.11
chara,77.0,49.19,-98.1,47.0,1.0,18.34
igrim,97.16,18.74,7.39,9.0,16.0,8.9
carutapera,70.23,-10.98,-66.1,91.0,0.0,2.46
rafai,70.0,36.96,36.2,86.0,19.0,1.36
huarmey,69.87,43.6,73.76,39.0,100.0,7.16
mahebourg,84.13,48.23,-101.3,45.0,1.0,18.34
hauterive,47.34,47.17,-55.15,94.0,100.0,14.58
palabuhanratu,74.14,-1.57,9.26,88.0,95.0,7.09
challans,53.96,46.56,131.42,95.0,100.0,11.72
kerman,82.4,13.07,-59.53,74.0,40.0,19.46
jacqueville,71.6,31.63,-8.01,53.0,0.0,4.7
ayacucho,74.75,-0.45,39.64,71.0,0.0,15.97
gazanjyk,63.3,51.42,9.93,92.0,100.0,4.0
marzuq,77.86,4.42,-7.35,87.0,97.0,7.34
oussouye,62.53,38.92,-78.19,77.0,75.0,3.67
pucallpa,48.74,52.43,22.86,96.0,0.0,4.92
san cristobal,75.94,40.28,97.2,20.0,100.0,14.03
perelyub,50.58,65.98,60.31,71.0,100.0,10.4
rungata,62.47,-21.34,55.48,77.0,6.0,12.75
markova,62.96,-23.86,35.35,81.0,45.0,2.53
doiwala,81.75,45.32,55.2,29.0,0.0,11.3
tabiauea,77.05,51.37,110.47,36.0,0.0,1.7
lalmohan,53.6,36.37,6.61,81.0,0.0,0.89
avera,74.93,-0.72,8.78,87.0,100.0,12.75
ornes,80.28,29.16,16.14,42.0,0.0,19.84
marawi,69.8,-20.73,139.5,32.0,0.0,12.75
union de reyes,57.45,53.41,-2.98,100.0,100.0,1.12
sembe,74.57,6.5,4.78,98.0,100.0,1.9
masallatah,45.68,69.77,21.02,81.0,100.0,12.62
kaeo,44.26,64.75,177.48,75.0,20.0,20.13
fort nelson,74.57,-20.33,-40.29,83.0,40.0,11.41
ondorhaan,89.11,30.9,75.85,28.0,0.0,6.33
pierre,61.09,53.92,-122.75,54.0,1.0,5.82
morden,59.0,61.99,5.14,92.0,98.0,2.64
arlit,51.8,-45.87,-67.5,66.0,100.0,8.05
riberalta,61.95,-22.54,-55.73,99.0,0.0,5.46
hunza,55.09,49.14,56.49,59.0,0.0,15.79
erzin,74.08,40.44,113.15,20.0,72.0,2.17
mahadday weyne,76.17,3.87,-67.92,92.0,71.0,1.61
shu,51.8,66.04,-17.34,71.0,0.0,17.22
minot,68.25,-13.34,-44.64,55.0,0.0,4.76
marystown,35.6,78.22,15.64,74.0,75.0,8.05
omboue,82.85,25.02,37.27,54.0,0.0,4.74
baoshan,68.41,27.98,-114.06,66.0,0.0,19.8
oistins,44.24,66.56,67.8,61.0,82.0,2.98
marrakesh,55.17,51.67,135.7,59.0,89.0,9.8
garissa,46.0,70.03,20.97,82.0,100.0,17.67
friedland,81.59,25.72,-79.3,75.0,94.0,17.47
tabou,91.06,37.1,-113.58,9.0,1.0,13.87
front royal,68.86,54.72,158.62,31.0,0.0,0.94
siemiatycze,55.44,-24.69,33.53,86.0,0.0,3.24
yumen,59.0,37.73,-25.67,77.0,75.0,10.29
verkhnyaya inta,67.68,35.95,-85.03,49.0,1.0,4.7
saint-pierre,87.46,13.03,-9.49,44.0,99.0,14.41
maxixe,65.98,64.5,-165.41,45.0,1.0,12.75
beyneu,82.87,21.46,-71.14,79.0,100.0,14.18
khilok,60.48,-35.34,143.55,67.0,0.0,13.47
constantine,67.71,8.46,25.68,94.0,100.0,6.42
port-gentil,63.5,1.31,32.46,96.0,80.0,3.83
waddan,77.0,17.49,44.13,23.0,0.0,1.16
mount isa,50.92,62.59,40.61,80.0,0.0,5.97
liverpool,80.91,36.21,-121.13,35.0,16.0,5.99
okitipupa,59.47,-12.65,-73.92,76.0,30.0,0.22
storslett,82.4,12.52,-70.03,78.0,20.0,24.16
anadyr,80.76,-8.35,113.61,81.0,7.0,3.2
vila velha,71.92,35.08,109.09,44.0,100.0,8.75
ludhiana,73.4,-20.32,118.57,20.0,0.0,16.11
toftir,71.6,-15.72,46.32,78.0,88.0,2.24
prince george,84.16,32.98,132.93,63.0,100.0,5.73
raudeberg,57.51,8.53,34.8,100.0,98.0,2.28
comodoro rivadavia,74.84,43.65,111.98,20.0,0.0,3.51
ponta pora,69.94,-0.9,-89.6,82.0,0.0,10.16
shubarkuduk,80.62,27.72,109.19,83.0,65.0,1.97
fengzhen,81.79,21.35,-158.09,54.0,75.0,12.75
inirida,62.87,-34.68,150.87,58.0,0.0,21.0
husavik,86.67,41.26,-95.86,45.0,1.0,18.34
correntina,86.0,17.02,54.09,84.0,90.0,2.24
longyearbyen,82.4,5.96,125.66,78.0,40.0,2.24
umm lajj,62.22,51.41,86.0,82.0,67.0,2.86
guerrero negro,70.3,-6.84,-40.58,81.0,32.0,7.23
aksarka,83.8,-8.14,159.59,76.0,95.0,10.31
berezovyy,56.66,49.86,26.09,96.0,62.0,6.11
amderma,86.2,39.51,54.37,19.0,0.0,13.62
skjervoy,71.01,-25.3,152.85,84.0,98.0,5.99
alice town,84.42,21.44,-157.84,46.0,40.0,14.99
saint george,77.0,6.8,81.48,100.0,20.0,4.7
milkovo,69.01,30.85,-116.07,47.0,0.0,4.0
chibuto,84.88,38.42,-121.42,23.0,1.0,8.05
ponta delgada,87.66,25.82,-103.85,18.0,5.0,13.87
crossville,69.28,33.59,-7.62,82.0,0.0,5.82
kita,37.4,-39.03,-67.58,53.0,89.0,6.11
nome,67.48,43.0,41.02,55.0,65.0,4.29
cockburn town,86.5,14.35,121.02,70.0,40.0,3.36
swan hill,83.43,0.53,72.93,77.0,55.0,12.71
raga,85.5,18.42,84.05,76.0,100.0,6.4
marcona,61.18,-22.09,-70.2,69.0,0.0,3.69
nakasongola,63.57,42.9,133.91,71.0,44.0,4.27
najran,78.64,17.61,99.22,87.0,85.0,2.75
puksoozero,77.72,4.87,-2.24,89.0,95.0,7.81
king city,85.5,14.2,121.43,70.0,40.0,3.36
ayna,80.6,46.88,-96.9,39.0,1.0,23.04
oranjestad,46.4,66.0,111.5,93.0,90.0,8.95
ambulu,85.06,32.22,-98.2,28.0,1.0,10.29
tongchuan,41.0,-40.57,-73.15,100.0,100.0,1.68
port hedland,59.5,58.69,99.18,70.0,93.0,8.88
mahajanga,84.2,-9.43,159.95,70.0,75.0,6.93
mys shmidta,82.04,3.12,35.6,50.0,57.0,12.46
nakamura,81.41,11.24,-74.2,84.0,9.0,11.65
kamenskoye,43.0,48.65,-53.11,81.0,100.0,1.99
dembi dolo,58.44,46.18,13.73,87.0,100.0,1.34
erenhot,57.63,52.96,4.76,100.0,90.0,6.93
puerto baquerizo moreno,52.09,-45.87,170.5,54.0,100.0,1.01
tongren,78.01,-3.41,-39.03,80.0,3.0,1.01
makakilo city,84.61,42.8,93.45,15.0,100.0,14.83
kiama,80.76,68.53,146.42,28.0,92.0,15.21
council bluffs,57.99,54.05,-128.65,74.0,86.0,3.0
salalah,62.67,-3.18,33.78,72.0,0.0,6.89
culaman,80.6,6.93,79.85,88.0,40.0,2.24
chemal,82.42,-7.94,110.25,79.0,82.0,6.69
pio ix,54.61,58.65,30.3,83.0,100.0,5.44
buala,55.4,54.67,20.13,93.0,75.0,2.24
lanivtsi,45.27,53.9,53.93,90.0,0.0,6.6
balkanabat,47.79,56.84,45.43,92.0,0.0,0.51
hervey bay,48.96,-30.21,30.8,73.0,0.0,7.29
ahuimanu,71.74,28.22,61.22,21.0,0.0,1.03
wattegama,54.95,60.15,15.19,51.0,0.0,1.39
camalu,64.4,46.62,29.91,100.0,40.0,2.95
laguna,59.92,-22.12,14.28,52.0,0.0,6.15
tumannyy,82.4,16.07,108.22,83.0,75.0,3.36
mapimi,39.99,-38.55,-58.74,78.0,0.0,4.0
casablanca,68.41,68.05,166.44,36.0,19.0,1.72
general roca,80.6,39.6,-110.81,14.0,1.0,8.05
sukhumi,76.59,-2.54,-57.76,85.0,28.0,2.15
san pedro,33.53,68.31,-53.46,90.0,100.0,16.33
thinadhoo,50.14,59.65,67.41,64.0,17.0,6.31
narasannapeta,63.0,44.18,16.36,86.0,0.0,0.92
tocopilla,48.96,51.23,-58.65,57.0,0.0,7.81
preobrazheniye,55.22,52.08,40.77,76.0,21.0,12.1
thoen,68.09,39.64,-86.86,30.0,1.0,8.05
axim,54.99,59.64,-151.55,71.0,1.0,19.46
magdalena,86.29,11.0,122.67,68.0,68.0,9.62
west fargo,64.2,40.8,-124.16,51.0,100.0,3.4
aykhal,44.6,60.73,77.59,75.0,90.0,11.18
stephenville,72.05,-14.84,-56.43,77.0,0.0,3.74
osorno,57.27,59.24,163.07,54.0,0.0,7.02
kodinsk,84.2,20.45,121.97,78.0,16.0,8.5
honiara,59.0,48.4,-89.32,51.0,40.0,12.75
lodwar,53.69,60.94,26.8,62.0,0.0,4.7
santa marta,62.67,-2.8,33.98,72.0,0.0,6.06
bonavista,83.79,28.07,95.33,71.0,25.0,1.52
tolmin,82.89,7.98,49.82,56.0,91.0,25.86
den helder,94.48,20.2,1.01,10.0,0.0,14.85
dunedin,83.05,29.39,106.52,74.0,40.0,6.71
paracuru,50.2,-14.78,24.8,88.0,0.0,5.88
hami,87.12,34.19,-103.33,14.0,1.0,16.11
belaya gora,87.8,32.32,-102.55,18.0,1.0,12.75
kitimat,68.0,41.96,42.96,77.0,40.0,14.99
nyalikungu,86.52,14.31,121.11,70.0,40.0,3.36
kalomo,77.9,4.38,-7.72,86.0,92.0,7.02
colombo,75.92,19.39,-99.17,14.0,5.0,5.82
srandakan,84.0,30.63,117.85,98.0,99.0,1.1
batetskiy,81.0,31.32,-113.53,75.0,0.0,8.99
svetlyy,92.34,31.33,-109.95,21.0,32.0,7.0
priyutovo,88.97,11.52,13.69,41.0,0.0,12.06
voskresenskoye,66.07,-5.09,-81.11,79.0,20.0,11.97
umkomaas,55.4,-31.95,141.43,54.0,0.0,13.87
khash,61.68,49.72,11.06,66.0,100.0,9.13
ludvika,71.89,-21.64,-41.05,89.0,45.0,17.11
dnestrovsc,75.2,37.14,50.29,69.0,0.0,2.24
nguiu,44.6,71.0,24.66,75.0,81.0,35.57
henties bay,55.35,53.91,14.25,85.0,0.0,11.43
turan,84.88,-8.77,160.7,70.0,100.0,4.85
necochea,83.34,29.11,21.29,20.0,0.0,9.86
bilibino,71.28,7.13,-3.2,99.0,100.0,2.51
price,88.59,-5.22,145.8,58.0,100.0,1.01
urucara,78.8,68.22,-135.01,24.0,20.0,10.29
kangaatsiaq,75.36,56.85,105.25,51.0,0.0,5.08
kondinskoye,68.81,39.45,-86.18,30.0,1.0,8.05
bosansko grahovo,82.4,7.04,134.26,83.0,75.0,5.82
saint-augustin,53.6,-33.01,17.94,87.0,0.0,2.24
mordovo,64.26,62.0,132.43,50.0,100.0,11.14
greencastle,60.8,58.16,28.19,59.0,64.0,6.71
homer,60.91,-8.42,20.74,49.0,0.0,3.49
dingle,72.0,50.61,105.32,47.0,45.0,2.46
eureka,85.15,20.9,70.37,75.0,100.0,7.16
strezhevoy,47.32,59.06,80.86,83.0,90.0,13.87
rosario oeste,58.84,-7.25,35.07,69.0,0.0,3.2
ossora,47.12,-41.87,-73.82,100.0,90.0,1.12
basco,71.55,-10.27,40.18,74.0,10.0,14.5
thunder bay,66.2,48.38,-77.23,24.0,20.0,4.7
valkeala,55.4,-33.46,-70.65,62.0,0.0,10.29
bariadi,86.04,28.37,129.48,74.0,75.0,12.75
pasighat,49.62,58.11,57.81,88.0,88.0,2.48
eyl,82.26,-0.91,122.88,72.0,17.0,7.11
tessalit,69.17,69.3,139.9,37.0,98.0,5.97
yudong,70.39,31.76,25.09,69.0,0.0,4.79
kaoma,69.53,54.34,101.5,58.0,100.0,1.3
portales,80.47,30.8,108.39,71.0,83.0,5.37
andrews,86.79,0.54,123.06,62.0,0.0,1.61
khani,53.28,60.34,102.28,90.0,100.0,3.83
santa rosa,58.03,53.13,132.9,50.0,100.0,5.75
harper,65.39,-12.77,-40.21,88.0,1.0,2.04
benito juarez,63.66,35.3,37.18,70.0,0.0,6.4
rongcheng,88.97,44.08,-103.23,15.0,1.0,9.17
puerto penasco,,,,,,
naco,,,,,,
bama,,,,,,
paita,,,,,,
broken hill,,,,,,
forchheim,,,,,,
sao joao da barra,,,,,,
rudsar,,,,,,
havoysund,,,,,,
temaraia,,,,,,
swinoujscie,,,,,,
auki,,,,,,
ust-kamchatsk,,,,,,
awjilah,,,,,,
agnibilekrou,,,,,,
madang,,,,,,
aklavik,,,,,,
yantal,,,,,,
bud,,,,,,
kloulklubed,,,,,,
saldanha,,,,,,
churapcha,,,,,,
seredka,,,,,,
lucapa,,,,,,
petropavlovka,,,,,,
veraval,,,,,,
kargasok,,,,,,
mafinga,,,,,,
ancud,,,,,,
mtwara,,,,,,
senneterre,,,,,,
santiago,,,,,,
naze,,,,,,
lysva,,,,,,
biak,,,,,,
deputatskiy,,,,,,
bardiyah,,,,,,
kuytun,,,,,,
wanxian,,,,,,
gorontalo,,,,,,
vanavara,,,,,,
opobo,,,,,,
tokur,,,,,,
iacu,,,,,,
abu samrah,,,,,,
sentyabrskiy,,,,,,
rapid city,,,,,,
viligili,,,,,,
dibaya,,,,,,
