City,Temp,Latitude,Longitude,Humidity,Cloudiness,Wind Speed,Country,Date
busselton,58.41,-33.65,115.33,55.0,84.0,27.22,AU,1592353447.0
mataura,47.46,-46.19,168.86,90.0,100.0,8.99,NZ,1592353448.0
yulara,51.8,-25.24,130.99,34.0,0.0,11.41,AU,1592353448.0
punta arenas,33.39,-53.15,-70.92,79.0,62.0,5.82,CL,1592353446.0
ribeira grande,64.83,38.52,-28.7,90.0,11.0,17.0,PT,1592353448.0
ushuaia,37.4,-54.8,-68.3,86.0,75.0,21.92,AR,1592353423.0
saskylakh,61.16,71.92,114.08,37.0,3.0,20.87,RU,1592353448.0
hilo,73.18,19.73,-155.09,73.0,90.0,10.29,US,1592353448.0
butaritari,82.92,3.07,172.79,80.0,2.0,11.54,KI,1592353449.0
rikitea,75.6,-23.12,-134.97,78.0,74.0,13.38,PF,1592353449.0
upernavik,32.07,72.79,-56.15,94.0,76.0,3.91,GL,1592353449.0
barawe,72.64,42.6,-73.97,50.0,0.0,1.21,US,1592353329.0
albany,78.76,4.88,-1.76,88.0,88.0,12.44,GH,1592353449.0
takoradi,76.41,-3.8,102.27,85.0,74.0,5.1,ID,1592353449.0
bengkulu,86.0,7.77,-72.22,58.0,40.0,6.93,VE,1592353438.0
san cristobal,84.2,17.02,54.09,89.0,75.0,1.12,OM,1592353450.0
jiddah,58.26,61.36,63.58,86.0,72.0,11.54,RU,1592353450.0
salalah,52.79,-37.62,-73.65,92.0,100.0,12.66,CL,1592353450.0
sovetskiy,46.69,69.7,170.31,65.0,100.0,4.9,RU,1592353450.0
lebu,80.98,70.63,147.92,29.0,52.0,11.81,RU,1592353450.0
pevek,31.93,73.51,80.55,94.0,100.0,14.12,RU,1592353451.0
chokurdakh,82.71,3.12,35.6,45.0,18.0,16.55,KE,1592353451.0
dikson,76.75,-3.28,-39.27,87.0,1.0,8.84,BR,1592353451.0
lodwar,71.6,65.28,-126.83,49.0,40.0,20.8,CA,1592353451.0
trairi,58.86,-33.02,27.91,73.0,23.0,9.31,ZA,1592353451.0
norman wells,39.24,77.48,-69.36,71.0,2.0,1.92,GL,1592353451.0
taolanaro,85.19,13.57,33.57,53.0,98.0,10.98,SD,1592353452.0
east london,44.6,-34.53,20.04,93.0,0.0,3.67,ZA,1592353452.0
qaanaaq,77.13,-9.45,-46.3,55.0,48.0,6.69,BR,1592353452.0
sinnar,50.0,60.4,-1.35,100.0,5.0,2.24,GB,1592353452.0
bredasdorp,65.7,36.5,111.7,82.0,100.0,2.68,CN,1592353452.0
morros,37.69,60.14,-45.24,84.0,52.0,11.01,GL,1592353452.0
brae,77.0,31.46,131.23,65.0,75.0,3.36,JP,1592353453.0
xinzhi,66.25,45.3,35.78,86.0,11.0,7.09,UA,1592353386.0
nanortalik,63.64,66.77,123.37,65.0,42.0,10.63,RU,1592353453.0
illoqqortoormiut,68.0,35.84,14.54,82.0,13.0,11.41,MT,1592353453.0
kushima,62.6,69.45,-133.04,59.0,75.0,8.05,CA,1592353454.0
lenine,84.06,67.45,153.68,23.0,94.0,8.08,RU,1592353454.0
barentsburg,55.0,-33.59,26.89,85.0,10.0,3.0,ZA,1592353454.0
zhigansk,54.46,48.68,71.64,76.0,100.0,20.8,KZ,1592353454.0
tsihombe,56.14,-24.79,-50.01,96.0,13.0,5.82,BR,1592353454.0
marsaxlokk,57.87,-42.72,170.97,87.0,73.0,6.98,NZ,1592353454.0
tuktoyaktuk,58.3,62.58,6.13,100.0,85.0,4.7,NO,1592353455.0
srednekolymsk,45.0,64.92,77.78,93.0,100.0,14.67,RU,1592353455.0
port alfred,76.69,1.74,98.78,82.0,82.0,3.53,ID,1592353455.0
atasu,78.35,-6.34,106.1,88.0,20.0,4.7,ID,1592353455.0
castro,64.56,59.7,30.79,88.0,89.0,4.47,RU,1592353455.0
hokitika,72.84,-17.53,146.03,88.0,44.0,12.97,AU,1592353456.0
roald,80.6,55.74,-97.86,28.0,75.0,9.17,CA,1592353456.0
tarko-sale,43.34,67.47,86.58,62.0,63.0,5.28,RU,1592353445.0
sibolga,53.6,64.38,-173.3,66.0,20.0,11.18,RU,1592353456.0
santa eulalia del rio,57.2,-28.77,114.6,44.0,75.0,16.11,AU,1592353456.0
karaton,74.57,1.75,40.06,67.0,30.0,16.73,KE,1592353456.0
nikolskoye,52.68,62.14,117.63,92.0,100.0,11.18,RU,1592353456.0
louisbourg,36.01,66.15,-65.71,81.0,76.0,2.71,CA,1592353456.0
innisfail,49.23,-38.27,141.97,74.0,100.0,5.91,AU,1592353457.0
thompson,70.23,4.28,21.02,91.0,78.0,1.21,CD,1592353457.0
igarka,64.11,48.93,-125.55,63.0,5.0,14.99,CA,1592353398.0
provideniya,54.91,-35.33,-72.42,93.0,100.0,8.3,CL,1592353457.0
geraldton,54.0,-34.42,19.23,82.0,0.0,3.0,ZA,1592353458.0
wajir,82.4,10.17,124.18,78.0,75.0,1.12,PH,1592353458.0
suntar,84.7,22.29,114.16,70.0,1.0,8.99,HK,1592353323.0
pangnirtung,60.8,50.7,-127.42,67.0,20.0,13.87,CA,1592353458.0
codrington,67.69,41.37,-73.41,52.0,1.0,4.7,US,1592353458.0
gbadolite,81.21,22.08,-159.32,66.0,75.0,14.99,US,1592353458.0
sayabec,47.66,-33.93,18.42,93.0,0.0,3.36,ZA,1592353459.0
rawannawi,70.3,42.1,-79.24,49.0,1.0,9.17,US,1592353459.0
ucluelet,51.8,57.79,-152.41,87.0,90.0,21.92,US,1592353459.0
constitucion,72.0,-0.74,-90.35,89.0,51.0,1.99,EC,1592353459.0
hermanus,80.4,-9.8,-139.03,76.0,5.0,19.73,PF,1592353459.0
jandayan,62.6,-24.87,113.63,36.0,0.0,9.17,AU,1592353460.0
tabiauea,43.09,-42.78,147.06,83.0,22.0,3.09,AU,1592353460.0
victoria,41.0,60.92,-46.05,80.0,51.0,10.29,GL,1592353460.0
port hardy,57.78,52.32,36.3,88.0,0.0,9.35,RU,1592353460.0
bethel,64.38,-23.86,35.38,83.0,6.0,8.05,MZ,1592353460.0
kapaa,45.37,-42.88,147.33,65.0,20.0,9.17,AU,1592353355.0
cape town,79.75,25.02,37.27,59.0,0.0,9.42,SA,1592353460.0
attawapiskat,64.42,44.25,-116.97,30.0,75.0,12.75,US,1592353461.0
jamestown,83.41,10.94,123.42,70.0,77.0,2.73,PH,1592353461.0
kodiak,49.12,-12.78,15.74,55.0,0.0,1.72,AO,1592353461.0
puerto ayora,70.09,-21.64,-41.05,78.0,73.0,12.48,BR,1592353461.0
atuona,70.2,40.81,-74.0,53.0,1.0,9.91,US,1592353426.0
mesolongion,46.96,-46.6,168.33,87.0,81.0,22.21,NZ,1592353462.0
carnarvon,52.0,-46.28,169.85,70.0,100.0,21.99,NZ,1592353462.0
new norfolk,84.4,-0.6,73.08,74.0,88.0,9.57,MV,1592353462.0
narsaq,80.6,13.22,-59.52,83.0,40.0,20.8,BB,1592353462.0
ponyri,62.96,34.64,-120.46,59.0,0.0,20.8,US,1592353462.0
inhambane,65.08,42.17,-71.25,45.0,1.0,3.36,US,1592353462.0
hobart,47.77,63.05,179.32,70.0,59.0,5.68,RU,1592353462.0
umm lajj,79.32,7.53,-12.51,86.0,100.0,6.82,SL,1592353463.0
weiser,99.0,20.52,-13.05,18.0,58.0,12.41,MR,1592353463.0
sagay,77.45,-8.05,111.72,85.0,93.0,4.34,ID,1592353463.0
huambo,39.2,68.82,-51.19,81.0,89.0,9.17,GL,1592353463.0
sao joao da barra,77.0,-21.2,-175.2,65.0,20.0,11.41,TO,1592353463.0
warqla,74.17,-9.88,-56.09,64.0,29.0,3.87,BR,1592353463.0
fairview,62.69,-35.17,173.17,74.0,83.0,9.89,NZ,1592353463.0
bluff,76.69,35.73,140.83,60.0,40.0,6.93,JP,1592353463.0
kaitangata,80.19,-16.48,-151.75,80.0,84.0,8.32,PF,1592353464.0
hithadhoo,75.2,-21.21,-159.78,57.0,2.0,8.05,CK,1592353464.0
bathsheba,49.53,64.25,-15.21,72.0,0.0,3.98,IS,1592353464.0
lompoc,85.73,-2.57,150.8,64.0,85.0,7.34,PG,1592353464.0
norfolk,75.2,55.1,-105.28,36.0,40.0,9.17,CA,1592353464.0
beringovskiy,90.9,27.22,77.48,43.0,17.0,6.02,IN,1592353465.0
bonthe,55.4,-33.87,121.9,36.0,6.0,23.04,AU,1592353465.0
atar,41.0,69.49,88.4,75.0,75.0,11.18,RU,1592353465.0
trenggalek,73.96,-0.19,-74.78,96.0,76.0,1.57,CO,1592353465.0
qasigiannguit,78.89,-12.28,43.74,73.0,95.0,13.04,KM,1592353465.0
vaini,50.54,56.95,90.67,72.0,0.0,3.06,RU,1592353465.0
alta floresta,73.71,34.67,138.95,73.0,75.0,10.29,JP,1592353465.0
ahipara,63.9,7.32,13.58,95.0,71.0,2.57,CM,1592353466.0
hasaki,41.0,71.29,-156.79,75.0,20.0,18.34,US,1592353466.0
faanui,61.43,58.11,68.32,73.0,68.0,7.29,RU,1592353466.0
avarua,62.6,64.5,-165.41,55.0,40.0,16.11,US,1592353466.0
nizhneyansk,77.45,35.13,140.3,65.0,75.0,5.82,JP,1592353466.0
turtkul,72.9,43.21,-75.46,44.0,1.0,4.7,US,1592353466.0
hofn,55.74,-38.0,-57.56,100.0,90.0,4.7,AR,1592353466.0
kavieng,59.0,54.92,61.46,67.0,20.0,11.18,RU,1592353467.0
la ronge,71.94,28.66,-17.92,83.0,100.0,2.24,ES,1592353467.0
bharatpur,71.6,37.14,50.29,73.0,0.0,2.26,IR,1592353467.0
esperance,71.13,-32.95,-60.64,73.0,50.0,11.41,AR,1592353433.0
talnakh,42.08,56.45,138.17,97.0,100.0,11.52,RU,1592353467.0
puerto leguizamo,82.2,-17.73,-149.15,78.0,40.0,17.22,PF,1592353467.0
fomboni,79.14,21.0,-100.38,26.0,5.0,11.41,MX,1592353468.0
novobirilyussy,64.2,62.46,-114.35,45.0,20.0,14.99,CA,1592353468.0
shimoda,80.6,14.69,-17.44,94.0,75.0,4.7,SN,1592353225.0
vaitupu,41.0,-38.95,-68.06,86.0,89.0,3.36,AR,1592353468.0
ngaoundere,66.13,45.61,10.53,82.0,40.0,6.93,IT,1592353468.0
barrow,63.57,33.19,-82.53,82.0,90.0,5.82,US,1592353468.0
sumkino,60.87,-28.78,32.04,79.0,80.0,3.67,ZA,1592353469.0
nome,80.01,8.0,124.29,85.0,42.0,1.99,PH,1592353469.0
katsuura,45.68,-46.13,167.68,87.0,81.0,14.27,NZ,1592353469.0
roma,37.4,65.61,-37.64,94.0,100.0,20.8,GL,1592353469.0
mar del plata,56.25,-21.36,55.77,82.0,75.0,10.29,RE,1592353469.0
roza,92.23,13.3,19.7,31.0,22.0,11.01,TD,1592353469.0
los llanos de aridane,49.3,60.72,-135.05,100.0,90.0,5.82,CA,1592353290.0
rudsar,62.33,46.43,26.4,100.0,100.0,3.13,RO,1592353470.0
rosario,80.74,14.2,24.67,16.0,99.0,7.96,SD,1592353470.0
ayan,81.05,-5.67,132.75,81.0,90.0,21.45,ID,1592353470.0
puerto pinasco,48.88,-40.81,-63.0,54.0,100.0,5.28,AR,1592353458.0
belushya guba,70.02,41.12,80.26,43.0,50.0,3.09,CN,1592353470.0
tautira,84.24,17.08,122.42,71.0,54.0,5.44,PH,1592353470.0
san jose iturbide,78.8,15.0,-83.23,94.0,75.0,12.24,HN,1592353470.0
yellowknife,73.4,-14.47,132.27,38.0,0.0,13.87,AU,1592353471.0
dakar,59.34,40.16,-8.33,79.0,27.0,1.88,PT,1592353471.0
neuquen,61.84,45.52,-122.68,48.0,40.0,5.82,US,1592353225.0
meyungs,57.2,50.86,17.47,93.0,54.0,1.12,PL,1592353471.0
salo,45.45,66.08,76.63,64.0,100.0,3.47,RU,1592353471.0
avera,62.82,-9.09,-78.58,88.0,5.0,9.1,PE,1592353471.0
richards bay,67.12,-23.53,148.17,60.0,0.0,18.34,AU,1592353472.0
sentyabrskiy,39.2,70.47,-68.59,69.0,75.0,2.24,CA,1592353472.0
marawi,50.99,71.69,128.87,52.0,55.0,8.93,RU,1592353472.0
tuatapere,75.06,7.62,-11.83,97.0,100.0,3.15,SL,1592353472.0
tasiilaq,83.23,42.27,118.96,22.0,40.0,10.69,CN,1592353472.0
saint-philippe,74.19,6.3,-70.2,95.0,100.0,6.11,CO,1592353472.0
oum hadjer,55.4,-33.04,-71.63,87.0,75.0,4.7,CL,1592353473.0
whitehorse,77.0,-8.26,-49.26,69.0,0.0,2.15,BR,1592353473.0
asau,79.43,26.0,63.04,88.0,0.0,0.18,PK,1592353473.0
kutum,68.0,-20.93,-54.96,68.0,0.0,8.05,BR,1592353285.0
tual,78.8,-5.32,119.37,100.0,20.0,5.82,ID,1592353473.0
viedma,94.32,27.85,67.91,34.0,3.0,8.39,PK,1592353473.0
aksu,61.29,40.17,34.84,62.0,0.0,3.36,TR,1592353474.0
dicabisagan,75.78,28.41,-80.6,73.0,1.0,5.82,US,1592353474.0
iralaya,84.24,6.21,124.19,69.0,28.0,1.52,PH,1592353474.0
katherine,98.92,20.5,-10.07,17.0,0.0,22.19,MR,1592353474.0
mys shmidta,50.97,-45.42,167.72,90.0,85.0,2.95,NZ,1592353474.0
lata,76.26,62.67,135.6,38.0,16.0,2.8,RU,1592353474.0
portland,69.8,-20.32,118.57,56.0,0.0,5.82,AU,1592353474.0
brzeg,56.89,61.68,64.48,92.0,94.0,9.66,RU,1592353475.0
novyy urengoy,84.2,21.46,-71.14,74.0,75.0,9.17,TC,1592353475.0
chimbote,62.01,-32.03,-52.1,90.0,0.0,11.63,BR,1592353475.0
emerald,63.68,48.14,38.94,61.0,52.0,8.95,UA,1592353475.0
clyde river,77.0,-19.06,-169.92,65.0,75.0,21.92,NU,1592353475.0
tiksi,68.4,-5.56,-80.82,73.0,1.0,17.78,PE,1592353475.0
mattru,69.8,-20.73,139.5,28.0,0.0,11.41,AU,1592353476.0
chifeng,57.43,-28.47,-65.79,56.0,88.0,1.99,AR,1592353476.0
cravo norte,52.77,56.15,96.92,66.0,0.0,0.43,RU,1592353476.0
amderma,69.8,-20.41,57.7,83.0,40.0,13.87,MU,1592353476.0
valparaiso,77.97,68.75,161.3,26.0,46.0,5.3,RU,1592353476.0
tarudant,44.87,62.72,32.73,81.0,0.0,6.85,RU,1592353477.0
conceicao do araguaia,75.83,-1.2,-46.02,92.0,46.0,6.15,BR,1592353477.0
turbat,54.14,1.42,-77.4,100.0,75.0,1.74,CO,1592353477.0
sidrolandia,69.8,-20.52,57.52,83.0,40.0,13.87,MU,1592353477.0
galesong,82.27,20.86,92.31,87.0,100.0,16.11,BD,1592353477.0
shahdadkot,37.4,78.22,15.64,74.0,75.0,10.29,SJ,1592353477.0
saleaula,83.48,14.05,124.17,70.0,75.0,4.21,PH,1592353477.0
alaca,52.11,51.48,104.85,78.0,21.0,1.57,RU,1592353478.0
cape canaveral,48.2,62.23,-6.59,100.0,100.0,20.8,FO,1592353478.0
palimbang,43.66,68.05,39.51,75.0,96.0,7.74,RU,1592353478.0
adrar,78.55,4.87,-2.24,88.0,92.0,11.97,GH,1592353478.0
te anau,56.91,58.41,51.28,96.0,31.0,6.02,RU,1592353478.0
khandyga,40.44,67.67,53.09,71.0,93.0,18.86,RU,1592353478.0
port hedland,48.79,60.5,43.58,96.0,40.0,6.04,RU,1592353478.0
gollere,52.18,55.17,58.78,94.0,12.0,6.24,RU,1592353479.0
kommunisticheskiy,77.0,4.93,-52.33,100.0,90.0,5.17,GF,1592353479.0
cockburn town,74.5,-0.45,39.64,63.0,90.0,15.75,KE,1592353479.0
rio grande,75.34,67.63,134.63,36.0,56.0,10.6,RU,1592353479.0
krasnyy luch,39.7,66.66,66.42,70.0,23.0,10.4,RU,1592353479.0
alofi,71.13,27.98,-114.06,61.0,3.0,16.93,MX,1592353479.0
sechura,77.16,20.93,-17.03,54.0,1.0,25.84,MR,1592353479.0
imisli,82.67,20.87,-90.4,76.0,10.0,16.55,MX,1592353480.0
mount isa,71.96,-17.71,-39.25,90.0,81.0,13.89,BR,1592353480.0
ngukurr,54.41,59.58,151.28,66.0,21.0,10.16,RU,1592353480.0
catamarca,60.8,-5.63,32.77,56.0,21.0,7.78,TZ,1592353480.0
tinskoy,70.36,62.1,126.7,42.0,5.0,11.01,RU,1592353431.0
mahebourg,67.39,-19.39,-40.07,87.0,37.0,5.77,BR,1592353480.0
cherskiy,51.8,62.54,113.96,100.0,40.0,2.24,RU,1592353480.0
porosozero,82.4,6.5,2.6,83.0,20.0,14.99,BJ,1592353481.0
carutapera,68.92,-19.52,45.47,61.0,8.0,2.89,MG,1592353481.0
el tambo,63.0,43.75,-81.72,68.0,0.0,4.07,CA,1592353481.0
souillac,82.4,12.06,-61.75,78.0,20.0,13.87,GD,1592353481.0
teknaf,73.4,-7.26,-34.91,100.0,20.0,4.7,BR,1592353481.0
longyearbyen,78.84,5.41,100.34,94.0,20.0,3.36,MY,1592353241.0
pandan,61.21,-10.75,-77.77,90.0,6.0,9.46,PE,1592353482.0
vydrino,53.92,69.38,178.42,57.0,0.0,9.57,RU,1592353482.0
klaksvik,49.89,71.97,102.5,49.0,94.0,7.18,RU,1592353482.0
ostrovnoy,55.4,58.81,-122.7,87.0,90.0,6.93,CA,1592353482.0
axim,77.2,20.89,-156.47,48.0,40.0,18.34,US,1592353435.0
kosino,61.18,60.05,69.9,73.0,49.0,8.99,RU,1592353482.0
naryan-mar,51.8,-33.01,17.94,66.0,0.0,1.12,ZA,1592353482.0
tarnogskiy gorodok,92.34,13.06,5.24,39.0,15.0,12.97,NG,1592353483.0
lucatan,67.24,-28.41,-54.96,86.0,100.0,10.6,BR,1592353483.0
mezhevoy,80.6,7.47,80.04,94.0,40.0,5.82,LK,1592353483.0
cayenne,50.83,57.31,88.17,72.0,3.0,3.15,RU,1592353265.0
garissa,65.77,40.42,-120.65,24.0,1.0,12.75,US,1592353260.0
batagay,83.8,-0.87,134.08,66.0,76.0,0.36,ID,1592353483.0
labytnangi,73.4,50.11,-120.79,35.0,40.0,6.93,CA,1592353483.0
guerrero negro,97.99,18.9,-3.53,8.0,0.0,11.5,ML,1592353484.0
wulanhaote,63.27,-10.07,-78.15,85.0,1.0,10.51,PE,1592353484.0
nouadhibou,67.32,41.14,-73.36,72.0,1.0,8.05,US,1592353203.0
celestun,64.4,-20.22,-70.14,63.0,90.0,8.05,CL,1592353484.0
caravelas,84.4,21.95,108.62,75.0,1.0,17.96,CN,1592353484.0
ola,84.2,19.21,-69.34,79.0,40.0,4.7,DO,1592353272.0
sikonge,90.63,21.43,39.83,19.0,0.0,5.26,SA,1592353484.0
berdigestyakh,80.91,11.67,92.75,84.0,100.0,15.17,IN,1592353454.0
linhares,84.2,12.25,109.18,79.0,40.0,3.36,VN,1592353485.0
mirnyy,76.51,27.27,31.15,26.0,0.0,3.02,EG,1592353485.0
porto novo,75.2,-26.65,15.16,9.0,0.0,25.28,NA,1592353485.0
zhemchuzhnyy,61.25,61.13,74.82,72.0,50.0,12.55,RU,1592353485.0
miandrivazo,55.4,42.62,-113.68,71.0,1.0,3.36,US,1592353485.0
goderich,42.22,50.68,156.12,91.0,99.0,12.17,RU,1592353485.0
saint-georges,63.75,-5.51,22.27,48.0,0.0,2.39,CD,1592353486.0
conde,58.87,-30.74,30.45,80.0,95.0,8.3,ZA,1592353486.0
georgetown,81.01,24.56,-81.78,74.0,75.0,10.29,US,1592353386.0
barranca,70.27,49.6,117.43,50.0,42.0,9.69,CN,1592353486.0
leningradskiy,54.41,56.89,21.19,100.0,9.0,3.36,LV,1592353486.0
khatanga,48.27,44.56,135.57,90.0,100.0,3.83,RU,1592353486.0
fort nelson,39.2,69.22,-51.1,82.0,97.0,9.17,GL,1592353486.0
kahului,59.74,-34.58,150.86,76.0,14.0,5.01,AU,1592353487.0
gornopravdinsk,93.24,27.32,-112.28,27.0,0.0,6.67,MX,1592353487.0
saldanha,77.7,6.8,81.48,79.0,99.0,6.15,LK,1592353487.0
nguiu,80.78,15.4,-87.8,78.0,75.0,6.93,HN,1592353240.0
sokoto,48.99,-38.38,142.48,87.0,100.0,4.05,AU,1592353487.0
sao luiz gonzaga,61.07,-33.7,-53.46,93.0,20.0,8.93,UY,1592353487.0
kuliyapitiya,57.58,52.86,19.67,88.0,24.0,4.07,PL,1592353487.0
teguldet,56.28,7.13,40.7,98.0,4.0,6.15,ET,1592353488.0
susanville,83.57,12.18,125.51,75.0,75.0,2.91,PH,1592353488.0
manokwari,84.2,0.53,72.93,75.0,87.0,10.58,MV,1592353488.0
merritt,59.79,44.17,132.21,90.0,80.0,8.21,RU,1592353488.0
araouane,58.6,52.33,-6.46,86.0,100.0,4.0,IE,1592353488.0
huarmey,42.31,70.63,29.72,75.0,98.0,16.53,NO,1592353488.0
westport,50.74,65.58,-171.0,57.0,0.0,4.12,RU,1592353488.0
iquique,64.89,-34.67,-54.92,93.0,12.0,6.93,UY,1592353488.0
qinzhou,83.35,11.0,122.67,72.0,90.0,4.94,PH,1592353489.0
samana,90.14,22.89,-109.91,25.0,20.0,13.87,MX,1592353489.0
mecca,63.0,38.7,-9.42,87.0,0.0,7.23,PT,1592353489.0
port blair,51.1,-23.7,133.88,43.0,0.0,16.71,AU,1592353489.0
nha trang,64.2,46.98,22.17,93.0,85.0,4.7,RO,1592353489.0
abnub,62.76,-13.7,-76.22,88.0,4.0,17.22,PE,1592353489.0
luderitz,61.41,59.7,150.17,49.0,62.0,8.16,RU,1592353490.0
lokosovo,78.8,-18.65,-173.98,65.0,75.0,9.17,TO,1592353490.0
rupert,75.6,41.49,-87.57,53.0,1.0,5.75,US,1592353490.0
severo-kurilsk,44.87,65.7,82.47,66.0,97.0,4.05,RU,1592353490.0
demba,83.28,10.88,122.49,72.0,91.0,7.34,PH,1592353490.0
port shepstone,78.94,39.45,-86.18,39.0,75.0,4.7,US,1592353490.0
key west,67.8,22.79,100.97,95.0,96.0,3.04,CN,1592353490.0
manzhouli,62.17,60.75,-137.51,45.0,100.0,8.16,CA,1592353491.0
pavilosta,65.79,40.52,-111.94,48.0,1.0,14.99,US,1592353194.0
dalnegorsk,78.01,41.76,86.15,52.0,96.0,1.99,CN,1592353491.0
ilulissat,70.25,63.45,120.32,50.0,47.0,4.63,RU,1592353491.0
flinders,68.0,64.75,177.48,37.0,0.0,8.95,RU,1592353491.0
santa rosalia,57.0,47.25,6.02,100.0,59.0,3.31,FR,1592353491.0
wattegama,69.78,42.1,-76.05,40.0,1.0,3.49,US,1592353382.0
el progreso,84.4,39.09,-94.42,51.0,1.0,12.75,US,1592353440.0
warrnambool,65.14,32.67,-17.1,94.0,40.0,3.36,PT,1592353492.0
chuy,57.2,66.0,111.5,50.0,52.0,4.47,RU,1592353492.0
sierpc,93.34,20.2,1.01,10.0,0.0,5.59,ML,1592353492.0
ginir,72.19,-0.22,20.87,71.0,26.0,1.43,CD,1592353492.0
san policarpo,65.77,37.67,-1.7,48.0,7.0,13.0,ES,1592353492.0
thinadhoo,70.84,10.39,8.57,86.0,97.0,5.79,NG,1592353493.0
yaroslavskiy,80.6,5.79,0.9,88.0,40.0,9.17,GH,1592353493.0
wexford,81.36,7.53,-80.03,81.0,96.0,13.18,PA,1592353493.0
batsfjord,66.07,-7.84,-79.15,77.0,6.0,6.06,PE,1592353493.0
lavrentiya,57.22,53.8,64.15,72.0,10.0,8.05,KZ,1592353493.0
maldonado,65.73,40.94,14.3,82.0,40.0,2.24,IT,1592353493.0
dingle,89.6,46.92,-98.0,40.0,1.0,24.16,US,1592353493.0
cabo san lucas,68.77,29.03,21.55,77.0,0.0,14.65,LY,1592353494.0
mrirt,77.5,-21.35,165.15,57.0,0.0,3.13,NC,1592353494.0
cascais,83.01,14.53,20.92,33.0,24.0,9.82,TD,1592353494.0
alice springs,62.85,57.04,34.96,95.0,91.0,3.89,RU,1592353494.0
copacel,74.3,4.25,-54.38,97.0,97.0,2.82,GF,1592353494.0
pisco,61.32,-4.58,30.1,75.0,16.0,1.41,TZ,1592353494.0
arman,64.4,37.72,-25.43,82.0,20.0,10.29,PT,1592353494.0
neiafu,79.27,13.08,109.3,82.0,100.0,6.71,VN,1592353495.0
sauk village,59.0,-29.47,149.85,62.0,0.0,4.7,AU,1592353495.0
krasnoselkup,86.0,3.2,-75.65,55.0,40.0,2.24,CO,1592353495.0
cabatuan,68.77,45.25,77.98,33.0,96.0,8.68,KZ,1592353495.0
bud,68.02,30.48,-115.95,68.0,31.0,10.74,MX,1592353495.0
simao,57.2,-29.95,-71.34,76.0,75.0,12.75,CL,1592353496.0
haines junction,81.48,-8.47,140.33,72.0,21.0,15.1,ID,1592353496.0
riverton,69.82,-22.97,-42.03,76.0,12.0,14.94,BR,1592353496.0
korla,73.87,-5.82,13.45,82.0,25.0,3.94,CD,1592353496.0
ondorhaan,42.8,70.66,23.68,75.0,75.0,17.22,NO,1592353497.0
verkhnevilyuysk,55.85,-25.4,-70.48,76.0,100.0,5.7,CL,1592353398.0
anadyr,61.41,29.27,82.18,69.0,72.0,0.72,NP,1592353497.0
besancon,55.0,57.26,16.45,90.0,12.0,3.33,SE,1592353497.0
endicott,58.24,63.29,9.09,93.0,32.0,3.36,NO,1592353497.0
independence,50.94,-26.47,31.2,85.0,100.0,3.6,SZ,1592353497.0
ponta do sol,64.4,39.05,-27.98,91.0,22.0,19.46,PT,1592353498.0
aykhal,87.22,11.5,42.5,35.0,83.0,0.51,DJ,1592353498.0
tessalit,84.76,26.12,127.67,94.0,75.0,11.41,JP,1592353498.0
boende,56.93,-4.55,34.85,80.0,35.0,14.54,TZ,1592353498.0
andevoranto,50.63,67.67,12.69,78.0,4.0,11.88,NO,1592353498.0
tuggurt,74.82,25.52,90.22,98.0,100.0,2.33,IN,1592353498.0
lorca,59.0,48.36,19.06,100.0,40.0,5.06,SK,1592353498.0
lere,71.46,-6.64,-51.99,80.0,2.0,2.59,BR,1592353499.0
anloga,37.2,63.75,-68.51,74.0,90.0,4.7,CA,1592353499.0
pedasi,66.0,46.38,123.4,60.0,15.0,1.01,CN,1592353499.0
chicama,41.97,71.04,27.85,77.0,95.0,15.41,NO,1592353499.0
borovskoy,71.6,41.17,41.83,78.0,40.0,6.93,TR,1592353499.0
cardito,77.05,27.92,96.17,85.0,93.0,1.86,IN,1592353331.0
valley city,82.04,24.09,32.91,16.0,0.0,5.41,EG,1592353499.0
jalu,59.31,51.07,132.56,49.0,15.0,4.52,RU,1592353500.0
poya,71.6,35.51,27.21,83.0,0.0,17.22,GR,1592353500.0
biltine,80.6,18.55,-88.25,83.0,75.0,5.82,MX,1592353398.0
torzhok,64.0,-8.93,125.41,84.0,92.0,6.17,TL,1592353500.0
grand-santi,79.57,38.23,-121.95,30.0,1.0,19.46,US,1592353500.0
kasulu,75.2,-5.79,-35.21,88.0,40.0,4.7,BR,1592353500.0
vila franca do campo,59.0,-33.92,25.57,82.0,0.0,9.17,ZA,1592353363.0
tuy hoa,73.4,-15.86,-38.88,88.0,75.0,4.7,BR,1592353500.0
moree,61.02,36.62,-121.92,59.0,1.0,16.11,US,1592353304.0
gazni,57.2,-31.95,141.43,67.0,34.0,10.29,AU,1592353501.0
planadas,81.14,7.42,81.82,75.0,100.0,5.7,LK,1592353501.0
ushtobe,88.65,44.67,-103.85,3.0,98.0,8.99,US,1592353501.0
san quintin,79.32,-2.88,108.27,84.0,100.0,3.83,ID,1592353501.0
coquimbo,56.89,61.95,159.23,51.0,100.0,9.98,RU,1592353501.0
tumannyy,56.05,62.62,22.42,71.0,13.0,2.24,FI,1592353501.0
tingrela,69.73,4.41,32.57,86.0,39.0,3.71,SS,1592353502.0
merauke,85.42,26.59,127.98,84.0,40.0,18.34,JP,1592353502.0
arraial do cabo,50.0,65.32,21.48,81.0,0.0,2.24,SE,1592353502.0
saundatti yellamma,59.95,48.92,2.33,82.0,77.0,2.24,FR,1592353502.0
sapao,42.8,63.84,-22.43,93.0,40.0,8.05,IS,1592353502.0
taburi,73.33,-23.49,-58.8,59.0,62.0,7.72,PY,1592353503.0
matadi,54.36,49.58,0.33,100.0,96.0,3.36,FR,1592353409.0
hammerfest,56.98,54.43,119.93,64.0,98.0,3.87,RU,1592353503.0
taltal,74.77,-7.23,-44.56,71.0,29.0,3.33,BR,1592353503.0
jumla,68.0,-20.67,-40.5,94.0,90.0,10.29,BR,1592353503.0
oskarshamn,74.91,10.63,-8.68,91.0,57.0,6.85,GN,1592353503.0
kyrksaeterora,78.48,28.07,95.33,85.0,81.0,1.88,IN,1592353503.0
lobamba,82.4,10.99,-74.95,88.0,75.0,6.93,CO,1592353435.0
lagoa,77.0,3.48,103.4,88.0,20.0,1.12,MY,1592353504.0
jibuti,58.66,-22.4,46.12,83.0,91.0,13.56,MG,1592353504.0
itoman,75.2,33.73,135.98,57.0,75.0,2.24,JP,1592353504.0
linchuan,85.93,65.75,150.85,22.0,16.0,8.68,RU,1592353504.0
mtinko,77.11,9.61,6.56,90.0,80.0,8.46,NG,1592353504.0
sorland,87.94,14.31,121.11,70.0,40.0,8.05,PH,1592353504.0
tura,63.0,60.1,32.3,99.0,26.0,8.05,RU,1592353505.0
krupina,87.06,35.92,-94.97,40.0,1.0,10.29,US,1592353505.0
sao felix do xingu,51.8,66.5,25.72,53.0,0.0,3.36,FI,1592353505.0
iqaluit,35.6,-45.58,-72.07,100.0,40.0,3.36,CL,1592353453.0
tailai,57.0,-38.55,-58.74,95.0,100.0,8.99,AR,1592353505.0
mehamn,69.33,45.58,-70.88,52.0,0.0,2.77,CA,1592353505.0
artvin,57.2,-34.04,23.05,54.0,0.0,2.24,ZA,1592353505.0
tezu,77.22,39.18,-84.53,41.0,1.0,6.93,US,1592353301.0
aswan,66.0,-35.44,-60.88,91.0,100.0,3.0,AR,1592353506.0
novyy urgal,51.8,54.67,20.13,93.0,16.0,2.24,RU,1592353506.0
karpathos,55.56,-41.41,175.52,81.0,15.0,1.99,NZ,1592353506.0
calderitas,63.54,40.53,-112.3,59.0,1.0,12.75,US,1592353364.0
airai,67.01,40.66,-73.58,56.0,1.0,10.29,US,1592353306.0
solano,82.02,34.3,71.65,19.0,0.0,4.99,PK,1592353507.0
natal,77.92,-8.12,111.89,86.0,83.0,5.82,ID,1592353507.0
port elizabeth,81.21,10.92,-7.0,55.0,74.0,3.47,ML,1592353507.0
belmonte,43.56,51.71,143.23,88.0,100.0,7.74,RU,1592353507.0
pacific grove,80.42,-8.14,159.59,80.0,100.0,3.29,SB,1592353507.0
broken hill,51.8,-45.87,-67.5,71.0,1.0,1.12,AR,1592353483.0
kalmunai,64.31,40.6,-124.16,59.0,20.0,13.87,US,1592353507.0
belle fourche,56.3,-34.73,135.87,71.0,19.0,6.02,AU,1592353507.0
manggar,80.38,18.28,-73.4,78.0,68.0,4.36,HT,1592353508.0
evensk,62.78,55.27,31.52,96.0,100.0,5.61,RU,1592353508.0
kurikka,72.79,-6.13,12.37,92.0,16.0,2.66,AO,1592353508.0
wahran,75.43,4.92,6.26,95.0,100.0,4.7,NG,1592353508.0
torit,83.57,19.37,-81.42,83.0,40.0,8.05,KY,1592353508.0
nago,56.98,-13.54,23.1,58.0,10.0,9.42,ZM,1592353508.0
pitea,56.28,50.0,88.67,57.0,15.0,0.63,RU,1592353508.0
saint-denis,67.41,49.85,-124.54,55.0,20.0,4.7,CA,1592353508.0
grindavik,73.4,-23.13,150.73,64.0,75.0,11.41,AU,1592353509.0
bolungarvik,75.6,-16.37,-58.4,60.0,37.0,4.27,BO,1592353509.0
pozo colorado,73.81,43.32,129.76,46.0,16.0,3.98,CN,1592353509.0
havre,50.09,46.54,138.33,83.0,99.0,10.22,RU,1592353509.0
tupik,78.8,38.8,121.27,54.0,86.0,6.71,CN,1592353509.0
urucui,89.33,22.57,59.53,50.0,18.0,10.04,OM,1592353510.0
guarapari,76.23,-5.11,105.31,90.0,75.0,3.53,ID,1592353510.0
mandiana,59.85,47.67,-52.73,51.0,75.0,14.99,CA,1592353510.0
pasighat,77.0,8.13,-5.1,94.0,27.0,6.93,CI,1592353510.0
puerto colombia,83.37,18.33,105.9,69.0,72.0,7.43,VN,1592353510.0
pekan,84.07,13.78,124.39,69.0,69.0,4.07,PH,1592353510.0
ihosy,77.05,-6.41,-48.54,73.0,29.0,1.14,BR,1592353510.0
shingu,81.84,23.25,90.86,86.0,100.0,5.23,BD,1592353511.0
zyryanka,71.47,63.9,122.76,52.0,13.0,8.84,RU,1592353511.0
minna,59.07,53.96,105.88,50.0,4.0,4.38,RU,1592353511.0
santa rosa,68.0,41.56,69.77,37.0,57.0,9.17,UZ,1592353511.0
novaya ladoga,76.01,-8.9,-35.15,86.0,27.0,11.88,BR,1592353511.0
katha,59.31,51.09,54.08,73.0,0.0,4.54,KZ,1592353511.0
tahlequah,76.05,37.27,-87.18,53.0,1.0,6.93,US,1592353512.0
rovaniemi,77.68,1.17,108.97,82.0,78.0,4.12,ID,1592353512.0
coihaique,58.51,53.52,-2.49,98.0,100.0,1.01,GB,1592353402.0
necochea,64.65,55.75,38.0,82.0,78.0,4.47,RU,1592353512.0
lac-megantic,76.39,14.9,-24.5,80.0,0.0,9.62,CV,1592353512.0
knysna,80.6,8.35,100.2,94.0,20.0,3.6,TH,1592353512.0
hamilton,71.62,69.3,139.9,37.0,80.0,12.39,RU,1592353512.0
nueve de julio,81.01,23.8,86.21,83.0,100.0,3.74,IN,1592353513.0
svetlyy,63.79,-13.8,-47.46,80.0,37.0,6.04,BR,1592353513.0
waipawa,68.58,-14.27,-43.16,72.0,29.0,7.38,BR,1592353513.0
khonuu,49.53,-41.87,-73.82,100.0,90.0,6.93,CL,1592353513.0
tooele,85.71,30.53,-92.08,51.0,1.0,6.93,US,1592353513.0
freeport,68.94,6.54,21.99,94.0,69.0,0.63,CF,1592353513.0
tangi,35.24,68.71,-52.87,87.0,96.0,9.44,GL,1592353514.0
boyolangu,84.42,10.57,72.64,78.0,100.0,21.72,IN,1592353514.0
sikasso,41.0,69.41,86.18,75.0,75.0,11.18,RU,1592353514.0
katangli,53.13,60.34,102.28,72.0,15.0,2.75,RU,1592353514.0
buala,66.69,-3.6,26.67,64.0,13.0,2.01,CD,1592353514.0
comodoro rivadavia,64.49,41.77,34.87,71.0,0.0,7.65,TR,1592353514.0
fortuna,64.17,52.98,116.92,73.0,63.0,4.12,RU,1592353515.0
port lincoln,66.81,38.2,20.43,82.0,0.0,5.12,GR,1592353515.0
aquin,73.47,-5.84,-43.83,78.0,19.0,4.61,BR,1592353515.0
demidov,82.47,16.29,119.81,78.0,48.0,7.87,PH,1592353515.0
soyo,57.87,52.31,16.41,82.0,68.0,1.12,PL,1592353515.0
yenagoa,84.16,-3.67,152.43,71.0,63.0,2.91,PG,1592353515.0
west bay,50.22,-34.0,24.73,90.0,0.0,4.79,ZA,1592353515.0
zambezi,68.79,-20.1,146.27,70.0,8.0,12.57,AU,1592353516.0
kosh-agach,58.57,52.44,61.74,62.0,20.0,4.88,KZ,1592353516.0
powell river,74.43,-4.26,-43.01,88.0,6.0,0.54,BR,1592353516.0
yeppoon,62.08,39.82,109.98,68.0,100.0,12.15,CN,1592353516.0
san matias,76.03,-22.96,14.51,14.0,0.0,18.34,NA,1592353516.0
wangqing,64.0,61.99,5.14,78.0,38.0,2.39,NO,1592353516.0
svetlaya,84.33,14.4,46.47,35.0,100.0,2.21,YE,1592353516.0
port arthur,66.81,29.58,-9.5,53.0,1.0,2.33,MA,1592353517.0
sur,56.43,58.08,54.66,92.0,50.0,8.14,RU,1592353517.0
metro,84.34,20.45,121.97,78.0,61.0,13.53,PH,1592353517.0
torbay,84.24,13.31,123.34,67.0,89.0,1.81,PH,1592353517.0
katiola,83.7,12.22,125.48,75.0,73.0,3.22,PH,1592353517.0
ha tinh,76.98,9.75,-63.18,80.0,10.0,5.88,VE,1592353324.0
gigmoto,60.8,42.98,144.37,87.0,75.0,5.82,JP,1592353517.0
xambioa,83.23,-3.37,135.48,63.0,39.0,2.59,ID,1592353505.0
hajiganj,72.57,40.6,-77.57,41.0,1.0,4.32,US,1592353518.0
samusu,69.62,-14.27,50.17,85.0,59.0,14.09,MG,1592353518.0
kysyl-syr,75.2,-15.77,128.73,22.0,3.0,10.29,AU,1592353518.0
kachug,64.62,49.1,33.42,88.0,100.0,10.69,UA,1592353518.0
gazalkent,71.6,40.81,111.65,53.0,40.0,8.95,CN,1592353518.0
sao jose da coroa grande,74.68,-14.88,47.99,56.0,93.0,11.39,MG,1592353518.0
chingirlau,66.38,57.8,158.67,38.0,1.0,8.93,RU,1592353519.0
morehead,78.33,-6.88,112.21,83.0,28.0,6.53,ID,1592353519.0
pemangkat,80.78,-16.7,-151.02,80.0,86.0,11.32,PF,1592353519.0
atherton,72.64,38.93,100.45,28.0,77.0,5.14,CN,1592353519.0
zheleznodorozhnyy,58.62,61.28,108.01,55.0,19.0,5.19,RU,1592353519.0
sao filipe,69.8,-20.34,57.76,83.0,40.0,13.87,MU,1592353519.0
karkaralinsk,78.8,9.54,99.94,94.0,20.0,6.4,TH,1592353324.0
pak phanang,60.03,-32.58,151.78,67.0,75.0,17.22,AU,1592353520.0
deputatskiy,83.73,20.9,70.37,86.0,90.0,9.06,IN,1592353520.0
baghmara,57.04,-21.37,55.62,82.0,75.0,10.29,RE,1592353520.0
cavalcante,85.17,17.96,-102.2,66.0,7.0,11.36,MX,1592353520.0
palmas de monte alto,55.29,42.03,-8.16,82.0,90.0,2.24,PT,1592353520.0
ancud,55.38,-27.03,31.95,79.0,100.0,6.24,SZ,1592353520.0
opelousas,82.4,5.96,125.66,74.0,20.0,1.66,PH,1592353520.0
bria,51.8,57.05,-135.33,76.0,90.0,9.17,US,1592353448.0
aasiaat,78.8,-12.73,45.2,69.0,75.0,14.99,YT,1592353521.0
kavaratti,77.47,-2.76,-42.27,85.0,1.0,3.71,BR,1592353521.0
dudinka,82.58,38.42,-121.42,21.0,1.0,4.7,US,1592353521.0
vanavara,94.03,29.68,73.62,11.0,0.0,6.82,IN,1592353521.0
kampene,75.2,-0.72,8.78,94.0,90.0,10.29,GA,1592353521.0
sinop,46.4,53.05,158.65,87.0,75.0,8.95,RU,1592353521.0
bukachacha,93.69,37.1,-113.58,9.0,1.0,26.4,US,1592353367.0
lixourion,97.39,25.29,51.53,21.0,2.0,12.75,QA,1592353522.0
buriti bravo,69.44,42.43,130.64,62.0,5.0,2.33,RU,1592353522.0
catuday,69.17,-14.9,50.28,85.0,48.0,10.69,MG,1592353522.0
opalenica,56.19,59.38,143.3,66.0,0.0,7.25,RU,1592353522.0
namatanai,70.29,33.73,-84.92,60.0,51.0,3.36,US,1592353522.0
kruisfontein,51.42,50.72,136.63,67.0,100.0,7.74,RU,1592353522.0
charters towers,53.47,36.62,101.77,65.0,75.0,3.94,CN,1592353523.0
ordzhonikidze,73.4,54.77,-101.86,43.0,75.0,6.93,CA,1592353523.0
coelho neto,42.4,-25.86,26.9,92.0,91.0,5.93,ZA,1592353523.0
dongsheng,55.44,53.14,0.34,100.0,20.0,2.24,GB,1592353523.0
walvis bay,72.25,-15.2,12.15,57.0,0.0,6.2,AO,1592353523.0
raudeberg,72.64,-20.74,116.85,40.0,0.0,6.93,AU,1592353523.0
marzuq,71.6,36.54,9.66,43.0,20.0,5.82,TN,1592353523.0
tiznit,50.2,-38.72,-62.27,69.0,100.0,5.26,AR,1592353523.0
vereshchagino,69.15,-23.78,-45.36,85.0,53.0,12.26,BR,1592353524.0
basco,79.52,-3.54,118.97,84.0,75.0,12.35,ID,1592353524.0
buluang,36.0,66.94,-53.67,84.0,100.0,5.66,GL,1592353524.0
alugan,69.96,-15.89,-52.26,63.0,0.0,4.12,BR,1592353524.0
maturin,78.96,3.38,-59.8,82.0,88.0,5.17,GY,1592353524.0
kushiro,30.2,-51.62,-69.22,92.0,0.0,12.75,AR,1592353524.0
nabire,85.55,-2.02,147.27,69.0,78.0,6.8,PG,1592353524.0
lewistown,81.23,34.77,-92.3,42.0,40.0,8.05,US,1592353444.0
sambava,65.91,35.43,119.46,90.0,100.0,9.46,CN,1592353525.0
kununurra,41.83,65.44,52.15,65.0,93.0,9.17,RU,1592353525.0
shkotovo-26,72.05,-21.15,149.2,73.0,90.0,14.99,AU,1592353525.0
kremenchuk,75.45,27.1,93.62,90.0,86.0,2.28,IN,1592353525.0
hohhot,62.02,43.41,-124.22,72.0,40.0,9.17,US,1592353371.0
antsohihy,84.83,7.98,49.82,55.0,84.0,27.29,SO,1592353526.0
tigil,89.22,13.6,26.69,25.0,100.0,7.54,SD,1592353526.0
labuhan,81.16,18.43,-65.88,78.0,40.0,10.29,PR,1592353526.0
fare,77.13,30.41,-86.62,69.0,75.0,6.93,US,1592353412.0
zhangye,77.0,-10.21,-48.36,65.0,3.0,8.05,BR,1592353339.0
yerbogachen,98.38,16.64,1.64,9.0,11.0,12.57,ML,1592353453.0
bambous virieux,82.99,21.26,77.51,74.0,99.0,1.34,IN,1592353526.0
ko samui,70.09,38.6,-77.16,49.0,40.0,6.42,US,1592353527.0
clarence town,55.62,51.03,-4.22,97.0,72.0,3.0,GB,1592353527.0
veraval,55.0,-35.72,150.18,78.0,42.0,8.1,AU,1592353527.0
saint-joseph,77.9,5.88,-10.05,90.0,62.0,9.66,LR,1592353527.0
lazaro cardenas,60.12,-34.48,-54.33,94.0,26.0,8.88,UY,1592353527.0
vila,88.39,31.3,-109.57,21.0,56.0,4.0,MX,1592353527.0
nsoko,55.4,63.73,8.83,93.0,4.0,3.36,NO,1592353527.0
culaman,86.0,16.86,-99.89,79.0,5.0,11.41,MX,1592353528.0
sitka,80.96,6.12,81.12,84.0,88.0,13.89,LK,1592353528.0
koungou,100.4,32.83,-109.71,10.0,1.0,16.11,US,1592353529.0
tutoia,83.37,12.39,-5.46,54.0,100.0,14.2,ML,1592353529.0
laguna,63.0,59.85,31.48,99.0,85.0,3.13,RU,1592353529.0
padampur,87.8,50.1,-91.92,43.0,75.0,10.29,CA,1592353530.0
port-gentil,50.27,61.47,-6.81,95.0,100.0,11.77,FO,1592353530.0
petropavlovsk-kamchatskiy,78.28,-2.89,-40.12,84.0,21.0,12.46,BR,1592353530.0
saint george,70.47,-9.86,124.28,85.0,71.0,8.32,ID,1592353530.0
doha,73.4,31.63,-8.01,53.0,18.0,4.7,MA,1592353530.0
khasan,84.2,6.71,121.97,83.0,40.0,4.7,PH,1592353530.0
antalaha,73.49,-7.38,108.21,91.0,81.0,0.25,ID,1592353530.0
okhotsk,82.4,10.31,119.01,83.0,20.0,4.7,PH,1592353531.0
villa rica,61.2,48.48,124.83,76.0,7.0,13.69,CN,1592353531.0
solnechnyy,73.11,-2.65,10.0,92.0,100.0,5.19,GA,1592353531.0
xining,85.1,14.92,120.55,70.0,75.0,4.7,PH,1592353531.0
flin flon,59.61,59.2,38.84,97.0,36.0,5.64,RU,1592353531.0
koster,83.75,26.22,117.49,66.0,2.0,2.91,CN,1592353531.0
skegness,75.22,-2.97,-47.48,80.0,17.0,4.16,BR,1592353280.0
namibe,77.43,-9.07,-44.36,59.0,94.0,3.18,BR,1592353532.0
karratha,81.18,18.93,-103.97,69.0,40.0,17.22,MX,1592353532.0
quballat,80.29,4.41,114.01,88.0,75.0,1.12,MY,1592353532.0
bahia blanca,73.44,29.97,32.53,43.0,0.0,2.86,EG,1592353533.0
ilhabela,60.01,61.13,11.36,71.0,35.0,4.0,NO,1592353533.0
kamenskoye,78.82,30.51,-87.21,78.0,90.0,17.22,US,1592353262.0
majene,64.67,50.57,123.72,51.0,0.0,6.08,CN,1592353533.0
sisimiut,68.0,37.4,136.9,64.0,75.0,5.82,JP,1592353533.0
barra do garcas,62.55,45.72,26.72,88.0,40.0,4.7,RO,1592353533.0
lethem,77.5,4.42,-7.35,88.0,88.0,10.13,CI,1592353533.0
rio gallegos,55.13,51.06,-0.33,93.0,76.0,0.16,GB,1592353534.0
lorengau,78.62,34.45,40.92,35.0,0.0,13.71,SY,1592353534.0
pulaski,82.71,32.07,64.84,13.0,0.0,9.22,AF,1592353534.0
orgun,57.2,43.32,145.57,93.0,75.0,5.82,JP,1592353534.0
rizhao,62.87,46.21,17.15,88.0,75.0,8.05,HU,1592353534.0
ust-tsilma,77.0,17.49,44.13,23.0,61.0,2.73,SA,1592353534.0
mackay,87.8,15.74,-96.47,62.0,75.0,6.93,MX,1592353535.0
itanagar,83.23,5.89,95.32,67.0,100.0,6.13,ID,1592353535.0
north bend,82.4,19.22,-104.7,78.0,40.0,17.22,MX,1592353535.0
eyl,,,,,,,,
umm kaddadah,,,,,,,,
loiza,,,,,,,,
fort walton beach,,,,,,,,
palmas,,,,,,,,
gao,,,,,,,,
achalpur,,,,,,,,
indian head,,,,,,,,
northam,,,,,,,,
batemans bay,,,,,,,,
buchanan,,,,,,,,
rocha,,,,,,,,
agua prieta,,,,,,,,
sistranda,,,,,,,,
acapulco,,,,,,,,
hambantota,,,,,,,,
tidore,,,,,,,,
umzimvubu,,,,,,,,
safford,,,,,,,,
gangotri,,,,,,,,
koutiala,,,,,,,,
priladozhskiy,,,,,,,,
khristoforovo,,,,,,,,
sioux lookout,,,,,,,,
vagur,,,,,,,,
acarau,,,,,,,,
soe,,,,,,,,
marrakesh,,,,,,,,
isabela,,,,,,,,
kawalu,,,,,,,,
one hundred mile house,,,,,,,,
caruray,,,,,,,,
nehe,,,,,,,,
gamba,,,,,,,,
lubao,,,,,,,,
chebsara,,,,,,,,
bantou,,,,,,,,
paragominas,,,,,,,,
bom jesus,,,,,,,,
toliary,,,,,,,,
yithion,,,,,,,,
armeria,,,,,,,,
miri,,,,,,,,
suez,,,,,,,,
rena,,,,,,,,
ferry pass,,,,,,,,
alihe,,,,,,,,
wajima,,,,,,,,
nereju,,,,,,,,
tabou,,,,,,,,
horsham,,,,,,,,
abu kamal,,,,,,,,
sangin,,,,,,,,
kadykchan,,,,,,,,
nemuro,,,,,,,,
berzence,,,,,,,,
najran,,,,,,,,
pochutla,,,,,,,,
sabang,,,,,,,,
san patricio,,,,,,,,
